{"type":"FeatureCollection","features":[{"type":"Feature","id":"MRS_Airport.1","geometry":{"type":"Point","coordinates":[104.563875,12.255236]},"geometry_name":"the_geom","properties":{"NAME":"Kampong Chhnang","CITY":"Kompong Chnang","COUNTRY":"Cambodia","IATA_FAA":"","ICAO":"VDKH","TYPE":"D"}},{"type":"Feature","id":"MRS_Airport.2","geometry":{"type":"Point","coordinates":[104.844139,11.546556]},"geometry_name":"the_geom","properties":{"NAME":"Phnom Penh Intl","CITY":"Phnom-penh","COUNTRY":"Cambodia","IATA_FAA":"PNH","ICAO":"VDPP","TYPE":"I"}},{"type":"Feature","id":"MRS_Airport.3","geometry":{"type":"Point","coordinates":[103.81284,13.410666]},"geometry_name":"the_geom","properties":{"NAME":"Siem Reap","CITY":"Siem-reap","COUNTRY":"Cambodia","IATA_FAA":"REP","ICAO":"VDSR","TYPE":"D"}},{"type":"Feature","id":"MRS_Airport.4","geometry":{"type":"Point","coordinates":[106.014531,13.531897]},"geometry_name":"the_geom","properties":{"NAME":"Stung Treng","CITY":"Stung Treng","COUNTRY":"Cambodia","IATA_FAA":"","ICAO":"VDST","TYPE":"D"}},{"type":"Feature","id":"MRS_Airport.5","geometry":{"type":"Point","coordinates":[102.160764,19.897914]},"geometry_name":"the_geom","properties":{"NAME":"Luangprabang Intl","CITY":"Luang Prabang","COUNTRY":"Laos","IATA_FAA":"LPQ","ICAO":"VLLB","TYPE":"I"}},{"type":"Feature","id":"MRS_Airport.6","geometry":{"type":"Point","coordinates":[105.781417,15.132053]},"geometry_name":"the_geom","properties":{"NAME":"Pakse","CITY":"Pakse","COUNTRY":"Laos","IATA_FAA":"PKZ","ICAO":"VLPS","TYPE":"D"}},{"type":"Feature","id":"MRS_Airport.7","geometry":{"type":"Point","coordinates":[103.218208,19.454864]},"geometry_name":"the_geom","properties":{"NAME":"Phonesavanh","CITY":"Phong Savanh","COUNTRY":"Laos","IATA_FAA":"","ICAO":"VLPV","TYPE":"D"}},{"type":"Feature","id":"MRS_Airport.8","geometry":{"type":"Point","coordinates":[104.759531,16.556594]},"geometry_name":"the_geom","properties":{"NAME":"Savannakhet","CITY":"Savannakhet","COUNTRY":"Laos","IATA_FAA":"ZVK","ICAO":"VLSK","TYPE":"D"}},{"type":"Feature","id":"MRS_Airport.9","geometry":{"type":"Point","coordinates":[104.066583,20.418358]},"geometry_name":"the_geom","properties":{"NAME":"Sam Neua","CITY":"Sam Neua","COUNTRY":"Laos","IATA_FAA":"","ICAO":"VLSN","TYPE":"D"}},{"type":"Feature","id":"MRS_Airport.10","geometry":{"type":"Point","coordinates":[102.563256,17.988322]},"geometry_name":"the_geom","properties":{"NAME":"Wattay Intl","CITY":"Vientiane","COUNTRY":"Laos","IATA_FAA":"VTE","ICAO":"VLVT","TYPE":"I"}},{"type":"Feature","id":"MRS_Airport.11","geometry":{"type":"Point","coordinates":[100.60675,13.912583]},"geometry_name":"the_geom","properties":{"NAME":"Don Muang Intl","CITY":"Bangkok","COUNTRY":"Thailand","IATA_FAA":"DMK","ICAO":"VTBD","TYPE":"I"}},{"type":"Feature","id":"MRS_Airport.12","geometry":{"type":"Point","coordinates":[99.917219,14.101975]},"geometry_name":"the_geom","properties":{"NAME":"Kamphaeng Saen","CITY":"Nakhon Pathom","COUNTRY":"Thailand","IATA_FAA":"","ICAO":"VTBK","TYPE":"D"}},{"type":"Feature","id":"MRS_Airport.13","geometry":{"type":"Point","coordinates":[100.663367,14.874561]},"geometry_name":"the_geom","properties":{"NAME":"Khok Kathiam","CITY":"Lop Buri","COUNTRY":"Thailand","IATA_FAA":"","ICAO":"VTBL","TYPE":"D"}},{"type":"Feature","id":"MRS_Airport.14","geometry":{"type":"Point","coordinates":[101.005028,12.679944]},"geometry_name":"the_geom","properties":{"NAME":"U Taphao Intl","CITY":"Pattaya","COUNTRY":"Thailand","IATA_FAA":"UTP","ICAO":"VTBU","TYPE":"I"}},{"type":"Feature","id":"MRS_Airport.15","geometry":{"type":"Point","coordinates":[102.315492,13.7688]},"geometry_name":"the_geom","properties":{"NAME":"Watthana Nakhon","CITY":"Prachin Buri","COUNTRY":"Thailand","IATA_FAA":"","ICAO":"VTBW","TYPE":"D"}},{"type":"Feature","id":"MRS_Airport.16","geometry":{"type":"Point","coordinates":[99.504167,18.270933]},"geometry_name":"the_geom","properties":{"NAME":"Lampang","CITY":"Lampang","COUNTRY":"Thailand","IATA_FAA":"LPT","ICAO":"VTCL","TYPE":"D"}},{"type":"Feature","id":"MRS_Airport.17","geometry":{"type":"Point","coordinates":[100.164664,18.132169]},"geometry_name":"the_geom","properties":{"NAME":"Phrae","CITY":"Phrae","COUNTRY":"Thailand","IATA_FAA":"PRH","ICAO":"VTCP","TYPE":"D"}},{"type":"Feature","id":"MRS_Airport.18","geometry":{"type":"Point","coordinates":[99.951533,12.636225]},"geometry_name":"the_geom","properties":{"NAME":"Hua Hin","CITY":"Prachuap Khiri Khan","COUNTRY":"Thailand","IATA_FAA":"HHQ","ICAO":"VTPH","TYPE":"D"}},{"type":"Feature","id":"MRS_Airport.19","geometry":{"type":"Point","coordinates":[100.295861,15.277306]},"geometry_name":"the_geom","properties":{"NAME":"Takhli","CITY":"Nakhon Sawan","COUNTRY":"Thailand","IATA_FAA":"","ICAO":"VTPI","TYPE":"D"}},{"type":"Feature","id":"MRS_Airport.20","geometry":{"type":"Point","coordinates":[101.251389,16.824322]},"geometry_name":"the_geom","properties":{"NAME":"Sak Long","CITY":"Phetchabun","COUNTRY":"Thailand","IATA_FAA":"","ICAO":"VTPL","TYPE":"D"}},{"type":"Feature","id":"MRS_Airport.21","geometry":{"type":"Point","coordinates":[100.136794,15.672997]},"geometry_name":"the_geom","properties":{"NAME":"Nakhon Sawan","CITY":"Nakhon Sawan","COUNTRY":"Thailand","IATA_FAA":"","ICAO":"VTPN","TYPE":"D"}},{"type":"Feature","id":"MRS_Airport.22","geometry":{"type":"Point","coordinates":[100.279122,16.782939]},"geometry_name":"the_geom","properties":{"NAME":"Phitsanulok","CITY":"Phitsanulok","COUNTRY":"Thailand","IATA_FAA":"PHS","ICAO":"VTPP","TYPE":"D"}},{"type":"Feature","id":"MRS_Airport.23","geometry":{"type":"Point","coordinates":[99.057911,17.234211]},"geometry_name":"the_geom","properties":{"NAME":"Khunan Phumipol","CITY":"Tak","COUNTRY":"Thailand","IATA_FAA":"","ICAO":"VTPY","TYPE":"D"}},{"type":"Feature","id":"MRS_Airport.24","geometry":{"type":"Point","coordinates":[100.080317,6.661403]},"geometry_name":"the_geom","properties":{"NAME":"Khoun Khan","CITY":"Satun","COUNTRY":"Thailand","IATA_FAA":"","ICAO":"VTSA","TYPE":"D"}},{"type":"Feature","id":"MRS_Airport.25","geometry":{"type":"Point","coordinates":[101.7434,6.519922]},"geometry_name":"the_geom","properties":{"NAME":"Narathiwat","CITY":"Narathiwat","COUNTRY":"Thailand","IATA_FAA":"NAW","ICAO":"VTSC","TYPE":"D"}},{"type":"Feature","id":"MRS_Airport.26","geometry":{"type":"Point","coordinates":[98.988764,8.095969]},"geometry_name":"the_geom","properties":{"NAME":"Krabi Intl","CITY":"Krabi","COUNTRY":"Thailand","IATA_FAA":"KBV","ICAO":"VTSG","TYPE":"I"}},{"type":"Feature","id":"MRS_Airport.27","geometry":{"type":"Point","coordinates":[100.608031,7.186564]},"geometry_name":"the_geom","properties":{"NAME":"Songkhla","CITY":"Songkhla","COUNTRY":"Thailand","IATA_FAA":"","ICAO":"VTSH","TYPE":"D"}},{"type":"Feature","id":"MRS_Airport.28","geometry":{"type":"Point","coordinates":[101.153569,6.785458]},"geometry_name":"the_geom","properties":{"NAME":"Pattani","CITY":"Pattani","COUNTRY":"Thailand","IATA_FAA":"PAN","ICAO":"VTSK","TYPE":"D"}},{"type":"Feature","id":"MRS_Airport.29","geometry":{"type":"Point","coordinates":[100.062272,9.547794]},"geometry_name":"the_geom","properties":{"NAME":"Samui","CITY":"Ko Samui","COUNTRY":"Thailand","IATA_FAA":"USM","ICAO":"VTSM","TYPE":"D"}},{"type":"Feature","id":"MRS_Airport.30","geometry":{"type":"Point","coordinates":[99.955625,8.471147]},"geometry_name":"the_geom","properties":{"NAME":"Cha Ian","CITY":"Nakhon Si Thammarat","COUNTRY":"Thailand","IATA_FAA":"","ICAO":"VTSN","TYPE":"D"}},{"type":"Feature","id":"MRS_Airport.31","geometry":{"type":"Point","coordinates":[98.316872,8.1132]},"geometry_name":"the_geom","properties":{"NAME":"Phuket Intl","CITY":"Phuket","COUNTRY":"Thailand","IATA_FAA":"HKT","ICAO":"VTSP","TYPE":"I"}},{"type":"Feature","id":"MRS_Airport.32","geometry":{"type":"Point","coordinates":[98.585483,9.777622]},"geometry_name":"the_geom","properties":{"NAME":"Ranong","CITY":"Ranong","COUNTRY":"Thailand","IATA_FAA":"","ICAO":"VTSR","TYPE":"D"}},{"type":"Feature","id":"MRS_Airport.33","geometry":{"type":"Point","coordinates":[100.392975,6.933206]},"geometry_name":"the_geom","properties":{"NAME":"Hat Yai Intl","CITY":"Songkhla","COUNTRY":"Thailand","IATA_FAA":"HDY","ICAO":"VTSS","TYPE":"I"}},{"type":"Feature","id":"MRS_Airport.34","geometry":{"type":"Point","coordinates":[99.616578,7.508744]},"geometry_name":"the_geom","properties":{"NAME":"Trang","CITY":"Trang","COUNTRY":"Thailand","IATA_FAA":"TST","ICAO":"VTST","TYPE":"D"}},{"type":"Feature","id":"MRS_Airport.35","geometry":{"type":"Point","coordinates":[102.788247,17.386436]},"geometry_name":"the_geom","properties":{"NAME":"Udon Thani","CITY":"Udon Thani","COUNTRY":"Thailand","IATA_FAA":"UTH","ICAO":"VTUD","TYPE":"D"}},{"type":"Feature","id":"MRS_Airport.36","geometry":{"type":"Point","coordinates":[104.118625,17.195142]},"geometry_name":"the_geom","properties":{"NAME":"Sakon Nakhon","CITY":"Sakon Nakhon","COUNTRY":"Thailand","IATA_FAA":"SNO","ICAO":"VTUI","TYPE":"D"}},{"type":"Feature","id":"MRS_Airport.37","geometry":{"type":"Point","coordinates":[103.498256,14.868264]},"geometry_name":"the_geom","properties":{"NAME":"Surin","CITY":"Surin","COUNTRY":"Thailand","IATA_FAA":"","ICAO":"VTUJ","TYPE":"D"}},{"type":"Feature","id":"MRS_Airport.38","geometry":{"type":"Point","coordinates":[101.722064,17.439133]},"geometry_name":"the_geom","properties":{"NAME":"Loei","CITY":"Loei","COUNTRY":"Thailand","IATA_FAA":"LOE","ICAO":"VTUL","TYPE":"D"}},{"type":"Feature","id":"MRS_Airport.39","geometry":{"type":"Point","coordinates":[102.078639,14.934514]},"geometry_name":"the_geom","properties":{"NAME":"Khorat","CITY":"Nakhon Ratchasima","COUNTRY":"Thailand","IATA_FAA":"","ICAO":"VTUN","TYPE":"D"}},{"type":"Feature","id":"MRS_Airport.40","geometry":{"type":"Point","coordinates":[103.6459,16.07035]},"geometry_name":"the_geom","properties":{"NAME":"Rob Muang","CITY":"Roi Et","COUNTRY":"Thailand","IATA_FAA":"","ICAO":"VTUR","TYPE":"D"}},{"type":"Feature","id":"MRS_Airport.41","geometry":{"type":"Point","coordinates":[108.19937,16.043917]},"geometry_name":"the_geom","properties":{"NAME":"Danang Intl","CITY":"Danang","COUNTRY":"Vietnam","IATA_FAA":"DAD","ICAO":"VVDN","TYPE":"I"}},{"type":"Feature","id":"MRS_Airport.42","geometry":{"type":"Point","coordinates":[105.886011,21.040975]},"geometry_name":"the_geom","properties":{"NAME":"Ha Noi Gia Lam","CITY":"Hanoi","COUNTRY":"Vietnam","IATA_FAA":"","ICAO":"VVGL","TYPE":"D"}},{"type":"Feature","id":"MRS_Airport.43","geometry":{"type":"Point","coordinates":[106.261083,21.394639]},"geometry_name":"the_geom","properties":{"NAME":"Kep","CITY":"Kep","COUNTRY":"Vietnam","IATA_FAA":"","ICAO":"VVKP","TYPE":"D"}},{"type":"Feature","id":"MRS_Airport.44","geometry":{"type":"Point","coordinates":[105.807178,21.221192]},"geometry_name":"the_geom","properties":{"NAME":"Noibai Intl","CITY":"Hanoi","COUNTRY":"Vietnam","IATA_FAA":"HAN","ICAO":"VVNB","TYPE":"I"}},{"type":"Feature","id":"MRS_Airport.45","geometry":{"type":"Point","coordinates":[109.192322,12.227467]},"geometry_name":"the_geom","properties":{"NAME":"Nhatrang","CITY":"Nhatrang","COUNTRY":"Vietnam","IATA_FAA":"NHA","ICAO":"VVNT","TYPE":"D"}},{"type":"Feature","id":"MRS_Airport.46","geometry":{"type":"Point","coordinates":[107.702614,16.4015]},"geometry_name":"the_geom","properties":{"NAME":"Phubai","CITY":"Hue","COUNTRY":"Vietnam","IATA_FAA":"","ICAO":"VVPB","TYPE":"D"}},{"type":"Feature","id":"MRS_Airport.47","geometry":{"type":"Point","coordinates":[103.967169,10.227025]},"geometry_name":"the_geom","properties":{"NAME":"Phu Quoc","CITY":"Phuquoc","COUNTRY":"Vietnam","IATA_FAA":"","ICAO":"VVPQ","TYPE":"D"}},{"type":"Feature","id":"MRS_Airport.48","geometry":{"type":"Point","coordinates":[106.651856,10.818797]},"geometry_name":"the_geom","properties":{"NAME":"Tansonnhat Intl","CITY":"Ho Chi Minh City","COUNTRY":"Vietnam","IATA_FAA":"SGN","ICAO":"VVTS","TYPE":"I"}},{"type":"Feature","id":"MRS_Airport.49","geometry":{"type":"Point","coordinates":[94.026133,19.769156]},"geometry_name":"the_geom","properties":{"NAME":"Ann","CITY":"Ann","COUNTRY":"Burma","IATA_FAA":"","ICAO":"VYAN","TYPE":"D"}},{"type":"Feature","id":"MRS_Airport.50","geometry":{"type":"Point","coordinates":[96.40605,21.955433]},"geometry_name":"the_geom","properties":{"NAME":"Anisakan","CITY":"Anisakan","COUNTRY":"Burma","IATA_FAA":"","ICAO":"VYAS","TYPE":"D"}}],"crs":{"type":"EPSG","properties":{"code":"4326"}}}
